[
  {
    "id": 37181,
    "slug": "lafayette-obrera-guadalajara",
    "type": "neighborhood",
    "link": "https://cms.vibemap.com/features/neighborhood/lafayette-obrera-guadalajara/",
    "title": {
      "rendered": "Lafayette / Obrera , Guadalajara"
    },
    "content": {
      "rendered": "",
      "protected": false
    },
    "featured_media": 0,
    "categories": [
      985
    ],
    "vibe": [
      1100,
      1076,
      1701
    ],
    "map": {
      "address": "Obrera, Guadalajara, Jalisco, Mexico",
      "lat": 20.6688505,
      "lng": -103.3724473,
      "zoom": 14,
      "place_id": "ChIJQT2vzwiuKIQRwQ-3I4_l1JE",
      "name": "Obrera",
      "city": "Guadalajara",
      "state": "Jalisco",
      "state_short": "Jal.",
      "post_code": "44140",
      "country": "Mexico",
      "country_short": "MX"
    }
  },
  {
    "id": 37079,
    "slug": "north-beach-san-francisco",
    "type": "neighborhood",
    "link": "https://cms.vibemap.com/features/neighborhood/north-beach-san-francisco/",
    "title": {
      "rendered": "Fillmore District, San Francisco"
    },
    "content": {
      "rendered": "",
      "protected": false
    },
    "featured_media": 0,
    "categories": [
      985
    ],
    "vibe": [
      1100,
      2119
    ],
    "map": {
      "address": "Fillmore Street, San Francisco, CA, USA",
      "lat": 37.786566,
      "lng": -122.4333927,
      "zoom": 15,
      "place_id": "EiNGaWxsbW9yZSBTdCwgU2FuIEZyYW5jaXNjbywgQ0EsIFVTQSIuKiwKFAoSCS_hjJXHgIWAEWxdn6ue_hlkEhQKEgkhAGkAbZqFgBH_rXbwZxNQSg",
      "name": "Fillmore Street",
      "street_name": "Fillmore Street",
      "street_name_short": "Fillmore St",
      "city": "San Francisco",
      "city_short": "SF",
      "state": "California",
      "state_short": "CA",
      "country": "United States",
      "country_short": "US"
    }
  },
  {
    "id": 36347,
    "slug": "downtown-vancouver",
    "type": "neighborhood",
    "link": "https://cms.vibemap.com/features/neighborhood/downtown-vancouver/",
    "title": {
      "rendered": "Downtown, Vancouver"
    },
    "content": {
      "rendered": "",
      "protected": false
    },
    "featured_media": 0,
    "categories": [],
    "vibe": [
      1100,
      2116,
      1956,
      2119
    ],
    "map": {
      "address": "Downtown Vancouver, Vancouver, BC, Canada",
      "lat": 49.281954,
      "lng": -123.1170744,
      "zoom": 15,
      "place_id": "ChIJsS-6QX9xhlQRqkQKVpQnlcY",
      "name": "Downtown Vancouver",
      "city": "Vancouver",
      "state": "British Columbia",
      "state_short": "BC",
      "country": "Canada",
      "country_short": "CA"
    }
  },
  {
    "id": 36165,
    "slug": "jack-london-oakland",
    "type": "neighborhood",
    "link": "https://cms.vibemap.com/features/neighborhood/jack-london-oakland/",
    "title": {
      "rendered": "Jack London, Oakland"
    },
    "content": {
      "rendered": "",
      "protected": false
    },
    "featured_media": 0,
    "categories": [
      985
    ],
    "vibe": [
      1060,
      1109,
      1073,
      1687
    ],
    "map": {
      "address": "Jack London Square, Water Street, Oakland, CA, USA",
      "lat": 37.79506910000001,
      "lng": -122.2777955,
      "zoom": 14,
      "place_id": "ChIJh4bticiAj4ARWq51mwQd95E",
      "name": "Jack London Square",
      "street_number": "472",
      "street_name": "Water Street",
      "street_name_short": "Water St",
      "city": "Oakland",
      "state": "California",
      "state_short": "CA",
      "post_code": "94607",
      "country": "United States",
      "country_short": "US"
    }
  },
  {
    "id": 36160,
    "slug": "monraz-guadalajara",
    "type": "neighborhood",
    "link": "https://cms.vibemap.com/features/neighborhood/monraz-guadalajara/",
    "title": {
      "rendered": "Monr√°z, Guadalajara"
    },
    "content": {
      "rendered": "",
      "protected": false
    },
    "featured_media": 0,
    "categories": [
      985
    ],
    "vibe": [
      1106,
      2162,
      2119
    ],
    "map": {
      "address": "Monraz, Guadalajara, Jalisco, Mexico",
      "lat": 20.6838829,
      "lng": -103.3948334,
      "zoom": 14,
      "place_id": "ChIJ3zGiY2euKIQRTG2-6m4D-p0",
      "name": "Monraz",
      "city": "Guadalajara",
      "state": "Jalisco",
      "state_short": "Jal.",
      "post_code": "44670",
      "country": "Mexico",
      "country_short": "MX"
    }
  },
  {
    "id": 36157,
    "slug": "tlaquepaque-guadalajara",
    "type": "neighborhood",
    "link": "https://cms.vibemap.com/features/neighborhood/tlaquepaque-guadalajara/",
    "title": {
      "rendered": "Tlaquepaque, Guadalajara"
    },
    "content": {
      "rendered": "",
      "protected": false
    },
    "featured_media": 0,
    "categories": [
      985
    ],
    "vibe": [
      2224,
      1100,
      2230
    ],
    "map": {
      "address": "Guadalajara, Nueva Central Camionera, Tlaquepaque, Jalisco, Mexico",
      "lat": 20.6211697,
      "lng": -103.2874569,
      "zoom": 14,
      "place_id": "ChIJVVVVlXWzKIQR3PkSF0pJkaY",
      "name": "Guadalajara",
      "city": "Tlaquepaque",
      "state": "Jalisco",
      "state_short": "Jal.",
      "post_code": "45580",
      "country": "Mexico",
      "country_short": "MX"
    }
  },
  {
    "id": 36154,
    "slug": "moderna-guadalajara",
    "type": "neighborhood",
    "link": "https://cms.vibemap.com/features/neighborhood/moderna-guadalajara/",
    "title": {
      "rendered": "Moderna, Guadalajara"
    },
    "content": {
      "rendered": "",
      "protected": false
    },
    "featured_media": 0,
    "categories": [
      985
    ],
    "vibe": [
      1070,
      1067
    ],
    "map": {
      "address": "Moderna, Guadalajara, Jalisco, Mexico",
      "lat": 20.6632425,
      "lng": -103.3601728,
      "zoom": 14,
      "place_id": "ChIJAxxSggeuKIQRNMr4UkpMuT8",
      "name": "Moderna",
      "city": "Guadalajara",
      "state": "Jalisco",
      "state_short": "Jal.",
      "post_code": "44190",
      "country": "Mexico",
      "country_short": "MX"
    }
  },
  {
    "id": 36151,
    "slug": "chapalita-guadalajara",
    "type": "neighborhood",
    "link": "https://cms.vibemap.com/features/neighborhood/chapalita-guadalajara/",
    "title": {
      "rendered": "Chapalita, Guadalajara"
    },
    "content": {
      "rendered": "",
      "protected": false
    },
    "featured_media": 0,
    "categories": [
      985
    ],
    "vibe": [
      1100,
      1106
    ],
    "map": {
      "address": "Chapalita, Guadalajara, Jalisco, Mexico",
      "lat": 20.6648834,
      "lng": -103.396743,
      "zoom": 14,
      "place_id": "ChIJCd-cY36uKIQRXWL-XEoO2FE",
      "name": "Chapalita",
      "city": "Zapopan",
      "state": "Jalisco",
      "state_short": "Jal.",
      "country": "Mexico",
      "country_short": "MX"
    }
  },
  {
    "id": 36148,
    "slug": "providencia-guadalajara",
    "type": "neighborhood",
    "link": "https://cms.vibemap.com/features/neighborhood/providencia-guadalajara/",
    "title": {
      "rendered": "Providencia, Guadalajara"
    },
    "content": {
      "rendered": "",
      "protected": false
    },
    "featured_media": 0,
    "categories": [
      985
    ],
    "vibe": [
      1106,
      1076
    ],
    "map": {
      "address": "Providencia, Guadalajara, Jalisco, Mexico",
      "lat": 20.7019816,
      "lng": -103.378224,
      "zoom": 14,
      "place_id": "ChIJG6ZO4TauKIQRtu20HkKYyaQ",
      "name": "Providencia",
      "city": "Guadalajara",
      "state": "Jalisco",
      "state_short": "Jal.",
      "post_code": "44630",
      "country": "Mexico",
      "country_short": "MX"
    }
  },
  {
    "id": 36145,
    "slug": "zapopan-centro-guadalajara",
    "type": "neighborhood",
    "link": "https://cms.vibemap.com/features/neighborhood/zapopan-centro-guadalajara/",
    "title": {
      "rendered": "Zapopan Centro, Guadalajara"
    },
    "content": {
      "rendered": "",
      "protected": false
    },
    "featured_media": 0,
    "categories": [
      985
    ],
    "vibe": [
      1100,
      1067,
      1076
    ],
    "map": {
      "address": "Zapopan, Jalisco, Mexico",
      "lat": 20.6719563,
      "lng": -103.416501,
      "zoom": 14,
      "place_id": "ChIJE0xwqWGuKIQRrALQftSl2K8",
      "name": "Zapopan",
      "city": "Zapopan",
      "state": "Jalisco",
      "state_short": "Jal.",
      "country": "Mexico",
      "country_short": "MX"
    }
  },
  {
    "id": 36143,
    "slug": "centro-guadalajara",
    "type": "neighborhood",
    "link": "https://cms.vibemap.com/features/neighborhood/centro-guadalajara/",
    "title": {
      "rendered": "Centro, Guadalajara"
    },
    "content": {
      "rendered": "",
      "protected": false
    },
    "featured_media": 0,
    "categories": [
      985
    ],
    "vibe": [
      1100,
      1067
    ],
    "map": {
      "address": "Centro, Guadalajara, Jalisco, Mexico",
      "lat": 20.6866131,
      "lng": -103.3507872,
      "zoom": 14,
      "place_id": "ChIJRVIRDOexKIQRD5KP_bz3CkU",
      "name": "Centro",
      "city": "Guadalajara",
      "state": "Jalisco",
      "state_short": "Jal.",
      "post_code": "44100",
      "country": "Mexico",
      "country_short": "MX"
    }
  },
  {
    "id": 36140,
    "slug": "mexicaltzingo-guadalajara",
    "type": "neighborhood",
    "link": "https://cms.vibemap.com/features/neighborhood/mexicaltzingo-guadalajara/",
    "title": {
      "rendered": "Mexicaltzingo, Guadalajara"
    },
    "content": {
      "rendered": "",
      "protected": false
    },
    "featured_media": 0,
    "categories": [
      985
    ],
    "vibe": [
      1100,
      2230,
      1067
    ],
    "map": {
      "address": "Mexicaltzingo, Guadalajara, Jalisco, Mexico",
      "lat": 20.6676254,
      "lng": -103.3505188,
      "zoom": 14,
      "place_id": "ChIJrbiNlfixKIQR84mf2aIdEWM",
      "name": "Mexicaltzingo",
      "city": "Guadalajara",
      "state": "Jalisco",
      "state_short": "Jal.",
      "country": "Mexico",
      "country_short": "MX"
    }
  },
  {
    "id": 36137,
    "slug": "santa-tere-guadalajara",
    "type": "neighborhood",
    "link": "https://cms.vibemap.com/features/neighborhood/santa-tere-guadalajara/",
    "title": {
      "rendered": "Santa Tere, Guadalajara"
    },
    "content": {
      "rendered": "",
      "protected": false
    },
    "featured_media": 0,
    "categories": [
      985
    ],
    "vibe": [
      1100,
      2230,
      2119
    ],
    "map": {
      "address": "Santa Teresita, Guadalajara, Jalisco, Mexico",
      "lat": 20.6845797,
      "lng": -103.367393,
      "zoom": 14,
      "place_id": "ChIJO9NaRxmuKIQRRs7pUsH8GgM",
      "name": "Santa Teresita",
      "city": "Guadalajara",
      "state": "Jalisco",
      "state_short": "Jal.",
      "country": "Mexico",
      "country_short": "MX"
    }
  },
  {
    "id": 36134,
    "slug": "americana-guadalajara",
    "type": "neighborhood",
    "link": "https://cms.vibemap.com/features/neighborhood/americana-guadalajara/",
    "title": {
      "rendered": "Americana, Guadalajara"
    },
    "content": {
      "rendered": "",
      "protected": false
    },
    "featured_media": 0,
    "categories": [
      985
    ],
    "vibe": [
      2224,
      1701
    ],
    "map": {
      "address": "Americana, Guadalajara, Jalisco, Mexico",
      "lat": 20.6717775,
      "lng": -103.3630608,
      "zoom": 14,
      "place_id": "ChIJ97zDIQSuKIQRqpaW1Xg7REE",
      "name": "Americana",
      "city": "Guadalajara",
      "state": "Jalisco",
      "state_short": "Jal.",
      "country": "Mexico",
      "country_short": "MX"
    }
  },
  {
    "id": 36131,
    "slug": "yaletown-vancouver",
    "type": "neighborhood",
    "link": "https://cms.vibemap.com/features/neighborhood/yaletown-vancouver/",
    "title": {
      "rendered": "Yaletown, Vancouver"
    },
    "content": {
      "rendered": "",
      "protected": false
    },
    "featured_media": 0,
    "categories": [],
    "vibe": [],
    "map": {
      "address": "Yaletown, Vancouver, BC, Canada",
      "lat": 49.27570189999999,
      "lng": -123.1199065,
      "zoom": 14,
      "place_id": "ChIJhfiZDdFzhlQRPykovzScbUU",
      "name": "Yaletown",
      "city": "Vancouver",
      "state": "British Columbia",
      "state_short": "BC",
      "country": "Canada",
      "country_short": "CA"
    }
  },
  {
    "id": 36128,
    "slug": "west-end-vancouver",
    "type": "neighborhood",
    "link": "https://cms.vibemap.com/features/neighborhood/west-end-vancouver/",
    "title": {
      "rendered": "West End, Vancouver"
    },
    "content": {
      "rendered": "",
      "protected": false
    },
    "featured_media": 0,
    "categories": [],
    "vibe": [],
    "map": {
      "address": "West End, Vancouver, BC, Canada",
      "lat": 49.2900541,
      "lng": -123.1376044,
      "zoom": 14,
      "place_id": "ChIJYz_9gylyhlQR2qzYMyrukxc",
      "name": "West End",
      "city": "Vancouver",
      "state": "British Columbia",
      "state_short": "BC",
      "country": "Canada",
      "country_short": "CA"
    }
  },
  {
    "id": 36122,
    "slug": "north-vancouver",
    "type": "neighborhood",
    "link": "https://cms.vibemap.com/features/neighborhood/north-vancouver/",
    "title": {
      "rendered": "North Vancouver"
    },
    "content": {
      "rendered": "",
      "protected": false
    },
    "featured_media": 0,
    "categories": [],
    "vibe": [
      1100,
      1106
    ],
    "map": {
      "address": "North Vancouver, BC, Canada",
      "lat": 49.3199816,
      "lng": -123.0724139,
      "zoom": 14,
      "place_id": "ChIJQSsj-UZwhlQRWuz71EvLhW8",
      "name": "North Vancouver",
      "city": "North Vancouver",
      "state": "British Columbia",
      "state_short": "BC",
      "country": "Canada",
      "country_short": "CA"
    }
  },
  {
    "id": 36117,
    "slug": "gastown-vancouver",
    "type": "neighborhood",
    "link": "https://cms.vibemap.com/features/neighborhood/gastown-vancouver/",
    "title": {
      "rendered": "Gastown, Vancouver"
    },
    "content": {
      "rendered": "",
      "protected": false
    },
    "featured_media": 0,
    "categories": [],
    "vibe": [
      1100,
      2119
    ],
    "map": {
      "address": "Gastown, Vancouver, BC, Canada",
      "lat": 49.2828082,
      "lng": -123.1066875,
      "zoom": 14,
      "place_id": "ChIJe_ROYXdxhlQRYYQ3bU2m_tE",
      "name": "Gastown",
      "city": "Vancouver",
      "state": "British Columbia",
      "state_short": "BC",
      "country": "Canada",
      "country_short": "CA"
    }
  },
  {
    "id": 36114,
    "slug": "east-vancouver-vancouver",
    "type": "neighborhood",
    "link": "https://cms.vibemap.com/features/neighborhood/east-vancouver-vancouver/",
    "title": {
      "rendered": "East Vancouver, Vancouver"
    },
    "content": {
      "rendered": "",
      "protected": false
    },
    "featured_media": 0,
    "categories": [
      985
    ],
    "vibe": [
      1100,
      1824,
      1067
    ],
    "map": {
      "address": "East Vancouver, Vancouver, BC, Canada",
      "lat": 49.2530487,
      "lng": -123.0663828,
      "zoom": 14,
      "place_id": "ChIJYfR5TV9xhlQRrFUa5caFrbg",
      "name": "East Vancouver",
      "city": "Vancouver",
      "state": "British Columbia",
      "state_short": "BC",
      "country": "Canada",
      "country_short": "CA"
    }
  },
  {
    "id": 36111,
    "slug": "davie-village-vancouver",
    "type": "neighborhood",
    "link": "https://cms.vibemap.com/features/neighborhood/davie-village-vancouver/",
    "title": {
      "rendered": "Davie Village, Vancouver"
    },
    "content": {
      "rendered": "",
      "protected": false
    },
    "featured_media": 0,
    "categories": [],
    "vibe": [],
    "map": {
      "address": "Davie Village, Vancouver, BC, Canada",
      "lat": 49.2804157,
      "lng": -123.1311982,
      "zoom": 14,
      "place_id": "ChIJcemsNdNzhlQRbL9Mw62J0_4",
      "name": "Davie Village",
      "city": "Vancouver",
      "state": "British Columbia",
      "state_short": "BC",
      "country": "Canada",
      "country_short": "CA"
    }
  },
  {
    "id": 36108,
    "slug": "36108",
    "type": "neighborhood",
    "link": "https://cms.vibemap.com/features/neighborhood/36108/",
    "title": {
      "rendered": "Mississippi, Portland"
    },
    "content": {
      "rendered": "",
      "protected": false
    },
    "featured_media": 0,
    "categories": [
      985
    ],
    "vibe": [],
    "map": {
      "address": "North Mississippi Avenue, Portland, OR, USA",
      "lat": 45.5467446,
      "lng": -122.6755671,
      "zoom": 14,
      "place_id": "EiROIE1pc3Npc3NpcHBpIEF2ZSwgUG9ydGxhbmQsIE9SLCBVU0EiLiosChQKEgn72gKwQ6eVVBFru9KXaieTRxIUChIJJ3SpfQsLlVQRkYXR9ua5Nhw",
      "name": "North Mississippi Avenue",
      "street_name": "North Mississippi Avenue",
      "street_name_short": "N Mississippi Ave",
      "city": "Portland",
      "state": "Oregon",
      "state_short": "OR",
      "country": "United States",
      "country_short": "US"
    }
  },
  {
    "id": 36105,
    "slug": "st-johns-portland",
    "type": "neighborhood",
    "link": "https://cms.vibemap.com/features/neighborhood/st-johns-portland/",
    "title": {
      "rendered": "St Johns, Portland"
    },
    "content": {
      "rendered": "",
      "protected": false
    },
    "featured_media": 0,
    "categories": [],
    "vibe": [],
    "map": {
      "address": "St Johns, Portland, OR, USA",
      "lat": 45.5901167,
      "lng": -122.7545431,
      "zoom": 14,
      "place_id": "ChIJfzyszwGolVQRDABWw2vPDYs",
      "name": "Saint Johns",
      "city": "Portland",
      "state": "Oregon",
      "state_short": "OR",
      "post_code": "97203",
      "country": "United States",
      "country_short": "US"
    }
  },
  {
    "id": 36103,
    "slug": "36103",
    "type": "neighborhood",
    "link": "https://cms.vibemap.com/features/neighborhood/36103/",
    "title": {
      "rendered": "Jade District, Portland"
    },
    "content": {
      "rendered": "",
      "protected": false
    },
    "featured_media": 0,
    "categories": [],
    "vibe": [],
    "map": {
      "address": "Jade District, Southeast 82nd Avenue, Portland, OR, USA",
      "lat": 45.50243139999999,
      "lng": -122.5785098,
      "zoom": 13,
      "place_id": "ChIJc4QQPkyglVQR-OcJ7DOcPC4",
      "name": "Jade District",
      "street_number": "2738",
      "street_name": "Southeast 82nd Avenue",
      "street_name_short": "SE 82nd Ave",
      "city": "Portland",
      "state": "Oregon",
      "state_short": "OR",
      "post_code": "97266",
      "country": "United States",
      "country_short": "US"
    }
  },
  {
    "id": 36100,
    "slug": "hawthorne-portland",
    "type": "neighborhood",
    "link": "https://cms.vibemap.com/features/neighborhood/hawthorne-portland/",
    "title": {
      "rendered": "Hawthorne, Portland"
    },
    "content": {
      "rendered": "",
      "protected": false
    },
    "featured_media": 0,
    "categories": [],
    "vibe": [
      1100,
      1067
    ],
    "map": {
      "address": "Hawthorne, Portland, OR, USA",
      "lat": 45.51206579999999,
      "lng": -122.6305462,
      "zoom": 14,
      "place_id": "ChIJ52Jmx5GglVQRiQxmM6jDkbA",
      "name": "Hawthorne",
      "city": "Portland",
      "state": "Oregon",
      "state_short": "OR",
      "country": "United States",
      "country_short": "US"
    }
  },
  {
    "id": 36097,
    "slug": "division-clinton-portland",
    "type": "neighborhood",
    "link": "https://cms.vibemap.com/features/neighborhood/division-clinton-portland/",
    "title": {
      "rendered": "Division/Clinton, Portland"
    },
    "content": {
      "rendered": "",
      "protected": false
    },
    "featured_media": 0,
    "categories": [],
    "vibe": [],
    "map": {
      "address": "Southeast Clinton Street, Portland, OR, USA",
      "lat": 45.5026103,
      "lng": -122.5672642,
      "zoom": 14,
      "place_id": "EiBTRSBDbGludG9uIFN0LCBQb3J0bGFuZCwgT1IsIFVTQSIuKiwKFAoSCZ08TNi1oZVUERHP_Qy-CpIyEhQKEgkndKl9CwuVVBGRhdH25rk2HA",
      "name": "Southeast Clinton Street",
      "street_name": "Southeast Clinton Street",
      "street_name_short": "SE Clinton St",
      "city": "Portland",
      "state": "Oregon",
      "state_short": "OR",
      "country": "United States",
      "country_short": "US"
    }
  },
  {
    "id": 36094,
    "slug": "central-eastside-portland",
    "type": "neighborhood",
    "link": "https://cms.vibemap.com/features/neighborhood/central-eastside-portland/",
    "title": {
      "rendered": "Central Eastside, Portland"
    },
    "content": {
      "rendered": "",
      "protected": false
    },
    "featured_media": 0,
    "categories": [],
    "vibe": [
      1073,
      1067,
      2119
    ],
    "map": {
      "address": "Central Eastside Lofts, Northeast 6th Avenue, Portland, OR, USA",
      "lat": 45.523777,
      "lng": -122.6598737,
      "zoom": 15,
      "place_id": "ChIJU7BbP6-glVQRnsq-yq-NKc8",
      "name": "Central Eastside Lofts",
      "street_number": "111",
      "street_name": "Northeast 6th Avenue",
      "street_name_short": "NE 6th Ave",
      "city": "Portland",
      "state": "Oregon",
      "state_short": "OR",
      "post_code": "97232",
      "country": "United States",
      "country_short": "US"
    }
  },
  {
    "id": 36074,
    "slug": "chinatown-old-town-portland",
    "type": "neighborhood",
    "link": "https://cms.vibemap.com/features/neighborhood/chinatown-old-town-portland/",
    "title": {
      "rendered": "Chinatown / Old Town, Portland"
    },
    "content": {
      "rendered": "",
      "protected": false
    },
    "featured_media": 0,
    "categories": [],
    "vibe": [
      1106,
      1073,
      2119,
      1906
    ],
    "map": {
      "address": "Old Town, Portland, OR, USA",
      "lat": 45.5246175,
      "lng": -122.6740295,
      "zoom": 14,
      "place_id": "ChIJVU8NdqqglVQRTKSkbw6TKoM",
      "name": "Old Town Chinatown",
      "city": "Portland",
      "state": "Oregon",
      "state_short": "OR",
      "country": "United States",
      "country_short": "US"
    }
  },
  {
    "id": 36071,
    "slug": "pioneer-square-seattle",
    "type": "neighborhood",
    "link": "https://cms.vibemap.com/features/neighborhood/pioneer-square-seattle/",
    "title": {
      "rendered": "Pioneer Square, Seattle"
    },
    "content": {
      "rendered": "",
      "protected": false
    },
    "featured_media": 0,
    "categories": [
      985
    ],
    "vibe": [
      1073,
      1070,
      1067
    ],
    "map": {
      "address": "Pioneer Square, Seattle, WA, USA",
      "lat": 47.6015184,
      "lng": -122.3342975,
      "zoom": 14,
      "place_id": "ChIJc4rF66RqkFQRnDhOyz3vhwM",
      "name": "Pioneer Square",
      "city": "Seattle",
      "state": "Washington",
      "state_short": "WA",
      "post_code": "98104",
      "country": "United States",
      "country_short": "US"
    }
  },
  {
    "id": 36068,
    "slug": "ballard-seattle",
    "type": "neighborhood",
    "link": "https://cms.vibemap.com/features/neighborhood/ballard-seattle/",
    "title": {
      "rendered": "Ballard, Seattle"
    },
    "content": {
      "rendered": "",
      "protected": false
    },
    "featured_media": 0,
    "categories": [
      985
    ],
    "vibe": [
      1106,
      2162
    ],
    "map": {
      "address": "Ballard, Seattle, WA, USA",
      "lat": 47.6792172,
      "lng": -122.3860312,
      "zoom": 15,
      "place_id": "ChIJgahdetUVkFQRnPTTCqyAdtA",
      "name": "Ballard",
      "city": "Seattle",
      "state": "Washington",
      "state_short": "WA",
      "country": "United States",
      "country_short": "US"
    }
  },
  {
    "id": 36065,
    "slug": "fremont-seattle",
    "type": "neighborhood",
    "link": "https://cms.vibemap.com/features/neighborhood/fremont-seattle/",
    "title": {
      "rendered": "Mission District, San Francisco"
    },
    "content": {
      "rendered": "",
      "protected": false
    },
    "featured_media": 0,
    "categories": [
      985
    ],
    "vibe": [
      1100,
      1103,
      1067,
      2119
    ],
    "map": {
      "address": "Mission District, San Francisco, CA, USA",
      "lat": 37.7598648,
      "lng": -122.4147977,
      "zoom": 15,
      "place_id": "ChIJIzOAXzx-j4ARiVHkPQcAWAM",
      "name": "Mission District",
      "city": "San Francisco",
      "city_short": "SF",
      "state": "California",
      "state_short": "CA",
      "country": "United States",
      "country_short": "US"
    }
  },
  {
    "id": 36058,
    "slug": "green-lake-seattle",
    "type": "neighborhood",
    "link": "https://cms.vibemap.com/features/neighborhood/green-lake-seattle/",
    "title": {
      "rendered": "Green Lake, Seattle"
    },
    "content": {
      "rendered": "",
      "protected": false
    },
    "featured_media": 0,
    "categories": [
      985
    ],
    "vibe": [],
    "map": {
      "address": "Green Lake, Seattle, WA, USA",
      "lat": 47.6798338,
      "lng": -122.3257826,
      "zoom": 15,
      "place_id": "ChIJ_WLV2hQUkFQRfCYBj_yqQsk",
      "name": "Green Lake",
      "city": "Seattle",
      "state": "Washington",
      "state_short": "WA",
      "country": "United States",
      "country_short": "US"
    }
  },
  {
    "id": 36047,
    "slug": "georgetown-seattle",
    "type": "neighborhood",
    "link": "https://cms.vibemap.com/features/neighborhood/georgetown-seattle/",
    "title": {
      "rendered": "Georgetown, Seattle"
    },
    "content": {
      "rendered": "",
      "protected": false
    },
    "featured_media": 0,
    "categories": [],
    "vibe": [],
    "map": {
      "address": "Georgetown, Seattle, WA, USA",
      "lat": 47.5475104,
      "lng": -122.3214521,
      "zoom": 15,
      "place_id": "ChIJl6hjBY1BkFQRUFkxFnWBQK4",
      "name": "Georgetown",
      "city": "Seattle",
      "state": "Washington",
      "state_short": "WA",
      "country": "United States",
      "country_short": "US"
    }
  },
  {
    "id": 36054,
    "slug": "queen-anne-seattle",
    "type": "neighborhood",
    "link": "https://cms.vibemap.com/features/neighborhood/queen-anne-seattle/",
    "title": {
      "rendered": "Queen Anne, Seattle"
    },
    "content": {
      "rendered": "",
      "protected": false
    },
    "featured_media": 0,
    "categories": [],
    "vibe": [],
    "map": {
      "address": "Queen Anne, Seattle, WA, USA",
      "lat": 47.6323268,
      "lng": -122.3568641,
      "zoom": 15,
      "place_id": "ChIJS04boGsVkFQR9Z2OSenfW94",
      "name": "Queen Anne",
      "city": "Seattle",
      "state": "Washington",
      "state_short": "WA",
      "country": "United States",
      "country_short": "US"
    }
  },
  {
    "id": 36050,
    "slug": "capitol-hill-seattle",
    "type": "neighborhood",
    "link": "https://cms.vibemap.com/features/neighborhood/capitol-hill-seattle/",
    "title": {
      "rendered": "Capitol Hill, Seattle"
    },
    "content": {
      "rendered": "",
      "protected": false
    },
    "featured_media": 0,
    "categories": [],
    "vibe": [],
    "map": {
      "address": "Capitol Hill, Seattle, WA, USA",
      "lat": 47.625305,
      "lng": -122.3221835,
      "zoom": 15,
      "place_id": "ChIJYWHIVygVkFQRhVHCu8Z9SO8",
      "name": "Capitol Hill",
      "city": "Seattle",
      "state": "Washington",
      "state_short": "WA",
      "country": "United States",
      "country_short": "US"
    }
  },
  {
    "id": 36044,
    "slug": "chinatown-seattle",
    "type": "neighborhood",
    "link": "https://cms.vibemap.com/features/neighborhood/chinatown-seattle/",
    "title": {
      "rendered": "Chinatown, Seattle"
    },
    "content": {
      "rendered": "",
      "protected": false
    },
    "featured_media": 0,
    "categories": [
      985
    ],
    "vibe": [],
    "map": {
      "address": "Chinatown/International District, Seattle, WA, USA",
      "lat": 47.5987122,
      "lng": -122.3239762,
      "zoom": 15,
      "place_id": "ChIJ88Uoib5qkFQRfBFxBZqWZ4A",
      "name": "Seattle Chinatown-International District",
      "city": "Seattle",
      "state": "Washington",
      "state_short": "WA",
      "country": "United States",
      "country_short": "US"
    }
  },
  {
    "id": 36040,
    "slug": "fruitvale-oakland",
    "type": "neighborhood",
    "link": "https://cms.vibemap.com/features/neighborhood/fruitvale-oakland/",
    "title": {
      "rendered": "Fruitvale, Oakland"
    },
    "content": {
      "rendered": "",
      "protected": false
    },
    "featured_media": 0,
    "categories": [],
    "vibe": [
      1070,
      1903,
      1906
    ],
    "map": {
      "address": "Fruitvale, Oakland, CA, USA",
      "lat": 37.7776559,
      "lng": -122.2258763,
      "zoom": 15,
      "place_id": "ChIJ8eEhQPSGj4ARfO1Et4EmrZk",
      "name": "Fruitvale",
      "city": "Oakland",
      "state": "California",
      "state_short": "CA",
      "country": "United States",
      "country_short": "US"
    }
  },
  {
    "id": 36037,
    "slug": "west-oakland-oakland",
    "type": "neighborhood",
    "link": "https://cms.vibemap.com/features/neighborhood/west-oakland-oakland/",
    "title": {
      "rendered": "West Oakland, Oakland"
    },
    "content": {
      "rendered": "",
      "protected": false
    },
    "featured_media": 0,
    "categories": [],
    "vibe": [],
    "map": {
      "address": "West Oakland, Oakland, CA, USA",
      "lat": 37.8155761,
      "lng": -122.2839963,
      "zoom": 14,
      "place_id": "ChIJvXDm7CB-hYAR0N2jK4mm6Kg",
      "name": "West Oakland",
      "city": "Oakland",
      "state": "California",
      "state_short": "CA",
      "country": "United States",
      "country_short": "US"
    }
  },
  {
    "id": 36034,
    "slug": "temescal-oakland",
    "type": "neighborhood",
    "link": "https://cms.vibemap.com/features/neighborhood/temescal-oakland/",
    "title": {
      "rendered": "Temescal, Oakland"
    },
    "content": {
      "rendered": "",
      "protected": false
    },
    "featured_media": 0,
    "categories": [
      985
    ],
    "vibe": [],
    "map": {
      "address": "Temescal, Oakland, CA, USA",
      "lat": 37.8333513,
      "lng": -122.260109,
      "zoom": 15,
      "place_id": "ChIJ3bOBl-N9hYARtkg4D6RFqBs",
      "name": "Temescal",
      "city": "Oakland",
      "state": "California",
      "state_short": "CA",
      "country": "United States",
      "country_short": "US"
    }
  },
  {
    "id": 36029,
    "slug": "inner-sunset-san-francisco",
    "type": "neighborhood",
    "link": "https://cms.vibemap.com/features/neighborhood/inner-sunset-san-francisco/",
    "title": {
      "rendered": "Inner Sunset, San Francisco"
    },
    "content": {
      "rendered": "",
      "protected": false
    },
    "featured_media": 0,
    "categories": [
      985
    ],
    "vibe": [],
    "map": {
      "address": "756 Irving St, San Francisco, CA 94122, USA",
      "lat": 37.764133875773645,
      "lng": -122.46626644229737,
      "zoom": 15,
      "place_id": "ChIJ81rmTVyHhYARMWMnPjAEtJ8",
      "street_number": "756",
      "street_name": "Irving Street",
      "street_name_short": "Irving St",
      "city": "San Francisco",
      "city_short": "SF",
      "state": "California",
      "state_short": "CA",
      "post_code": "94122",
      "country": "United States",
      "country_short": "US"
    }
  },
  {
    "id": 36024,
    "slug": "hayes-valley-san-francisco",
    "type": "neighborhood",
    "link": "https://cms.vibemap.com/features/neighborhood/hayes-valley-san-francisco/",
    "title": {
      "rendered": "Hayes Valley, San Francisco"
    },
    "content": {
      "rendered": "",
      "protected": false
    },
    "featured_media": 0,
    "categories": [
      985
    ],
    "vibe": [
      1106,
      2119
    ],
    "map": {
      "address": "hayes valley",
      "lat": 37.7759073,
      "lng": -122.4245247,
      "zoom": 15,
      "place_id": "ChIJGeftlqGAhYARLx8zNHZgtS8",
      "city": "San Francisco",
      "city_short": "SF",
      "state": "California",
      "state_short": "CA",
      "post_code": "94102",
      "country": "United States",
      "country_short": "US"
    }
  },
  {
    "id": 36016,
    "slug": "marina-san-francisco",
    "type": "neighborhood",
    "link": "https://cms.vibemap.com/features/neighborhood/marina-san-francisco/",
    "title": {
      "rendered": "Marina, San Francisco"
    },
    "content": {
      "rendered": "",
      "protected": false
    },
    "featured_media": 34531,
    "categories": [
      985
    ],
    "vibe": [
      1782,
      1701,
      1687
    ],
    "map": {
      "address": "Marina, San Francisco, CA, USA",
      "lat": 37.8036667,
      "lng": -122.4368151,
      "zoom": 15,
      "place_id": "ChIJG6XlmteAhYARMgiT8-gPxQM",
      "name": "Marina District",
      "city": "San Francisco",
      "city_short": "SF",
      "state": "California",
      "state_short": "CA",
      "country": "United States",
      "country_short": "US"
    }
  },
  {
    "id": 36011,
    "slug": "bay-view",
    "type": "neighborhood",
    "link": "https://cms.vibemap.com/features/neighborhood/bay-view/",
    "title": {
      "rendered": "Bayview, San Francisco"
    },
    "content": {
      "rendered": "",
      "protected": false
    },
    "featured_media": 0,
    "categories": [
      985
    ],
    "vibe": [
      1070,
      1067,
      1076
    ],
    "map": {
      "address": "3rd St & Oakdale Ave, San Francisco, CA 94124, USA",
      "lat": 37.73465859016705,
      "lng": -122.3908183862915,
      "zoom": 15,
      "place_id": "ChIJFfjoZQV_j4ARxqaDXFS7SS0",
      "city": "San Francisco",
      "city_short": "SF",
      "state": "California",
      "state_short": "CA",
      "post_code": "94124",
      "country": "United States",
      "country_short": "US"
    }
  },
  {
    "id": 35418,
    "slug": "japantown",
    "type": "neighborhood",
    "link": "https://cms.vibemap.com/features/neighborhood/japantown/",
    "title": {
      "rendered": "Japantown, San Francisco"
    },
    "content": {
      "rendered": "",
      "protected": false
    },
    "featured_media": 0,
    "categories": [
      985
    ],
    "vibe": [
      1060,
      1103,
      1106,
      1109,
      1064
    ],
    "map": {
      "address": "Japantown, San Francisco, CA, USA",
      "lat": 37.7854135,
      "lng": -122.429383,
      "zoom": 14,
      "place_id": "ChIJdWS3Kr-AhYARwstzJFP-ghw",
      "name": "Japantown",
      "city": "San Francisco",
      "city_short": "SF",
      "state": "California",
      "state_short": "CA",
      "post_code": "94115",
      "country": "United States",
      "country_short": "US"
    }
  },
  {
    "id": 35411,
    "slug": "north-beach",
    "type": "neighborhood",
    "link": "https://cms.vibemap.com/features/neighborhood/north-beach/",
    "title": {
      "rendered": "North Beach, San Francisco"
    },
    "content": {
      "rendered": "",
      "protected": false
    },
    "featured_media": 0,
    "categories": [
      985
    ],
    "vibe": [],
    "map": {
      "address": "650 Union St, San Francisco, CA 94133, USA",
      "lat": 37.80035660509935,
      "lng": -122.41009506560668,
      "zoom": 15,
      "place_id": "ChIJxfhUpvGAhYAR1oCzLvGjG2Q",
      "street_number": "650",
      "street_name": "Union Street",
      "street_name_short": "Union St",
      "city": "San Francisco",
      "city_short": "SF",
      "state": "California",
      "state_short": "CA",
      "post_code": "94133",
      "country": "United States",
      "country_short": "US"
    }
  },
  {
    "id": 35399,
    "slug": "haight-ashbury-san-francisco",
    "type": "neighborhood",
    "link": "https://cms.vibemap.com/features/neighborhood/haight-ashbury-san-francisco/",
    "title": {
      "rendered": "Haight-Ashbury, San Francisco"
    },
    "content": {
      "rendered": "",
      "protected": false
    },
    "featured_media": 34531,
    "categories": [
      985
    ],
    "vibe": [
      1103,
      1106
    ],
    "map": {
      "address": "Haight-Ashbury, San Francisco, CA, USA",
      "lat": 37.7692204,
      "lng": -122.4481393,
      "zoom": 15,
      "place_id": "ChIJX_Qyn6yAhYARSAqN56vATTI",
      "name": "Haight-Ashbury",
      "city": "San Francisco",
      "city_short": "SF",
      "state": "California",
      "state_short": "CA",
      "post_code": "94117",
      "country": "United States",
      "country_short": "US"
    }
  },
  {
    "id": 34032,
    "slug": "chinatown-vancouver",
    "type": "neighborhood",
    "link": "https://cms.vibemap.com/features/neighborhood/chinatown-vancouver/",
    "title": {
      "rendered": "Chinatown, Vancouver"
    },
    "content": {
      "rendered": "<p>Chinatown is a historic neighborhood on the east side of Downtown Vancouver.</p>\n",
      "protected": false
    },
    "featured_media": 34528,
    "categories": [
      5
    ],
    "vibe": [
      1073,
      1070,
      1067
    ],
    "map": {
      "address": "Chinatown, Vancouver, BC, Canada",
      "lat": 49.2801149,
      "lng": -123.1058197,
      "zoom": 13,
      "place_id": "ChIJh6EaSXpxhlQRuqzbrMHY00w",
      "name": "Chinatown",
      "city": "Vancouver",
      "state": "British Columbia",
      "state_short": "BC",
      "country": "Canada",
      "country_short": "CA"
    }
  },
  {
    "id": 34017,
    "slug": "chinatown",
    "type": "neighborhood",
    "link": "https://cms.vibemap.com/features/neighborhood/chinatown/",
    "title": {
      "rendered": "Chinatown, San Francisco"
    },
    "content": {
      "rendered": "",
      "protected": false
    },
    "featured_media": 34531,
    "categories": [
      985
    ],
    "vibe": [
      1100,
      2116,
      1067
    ],
    "map": {
      "address": "Chinatown, San Francisco, CA, USA",
      "lat": 37.7941378,
      "lng": -122.4077914,
      "zoom": 16,
      "place_id": "ChIJHYqlWIuAhYARrIAPZpIwnyg",
      "name": "Chinatown",
      "city": "San Francisco",
      "city_short": "SF",
      "state": "California",
      "state_short": "CA",
      "country": "United States",
      "country_short": "US"
    }
  }
]